[{"id":"02001","name":"ROSARITO","lon":-117.0731,"lat":32.3692},{"id":"02002","name":"LA MISION","lon":-116.8801,"lat":32.055},{"id":"02003","name":"El SAUZAL","lon":-116.7043,"lat":31.8944},{"id":"02004","name":"MARINA CORAL","lon":-116.6612,"lat":31.8622},{"id":"02005","name":"ENSENADA","lon":-116.6258,"lat":31.8522},{"id":"02006","name":"PUNTA CHINA","lon":-116.6437,"lat":31.5176},{"id":"02007","name":"SAN QUITIN","lon":-115.979,"lat":30.4823},{"id":"02008","name":"VENUSTIANO CARRANZA","lon":-114.119,"lat":28.0365},{"id":"02009","name":"ISLA CEDROS","lon":-115.185,"lat":28.0958},{"id":"02010","name":"SAN FELLIPE","lon":-114.8247,"lat":30.9949},{"id":"02011","name":"PUERTECITOS","lon":-114.6386,"lat":30.3438},{"id":"02012","name":"BAHIA DE LOS ANGELES","lon":-113.5528,"lat":28.9479},{"id":"03001","name":"GURRERO NEGRO","lon":-114.1378,"lat":27.8969},{"id":"03002","name":"A. LOPEZ MATEOS","lon":-112.1151,"lat":25.1887},{"id":"03003","name":"SAN CARLOS","lon":-112.1206,"lat":24.7863},{"id":"03004","name":"PUERTO CORTES","lon":-111.8198,"lat":24.4747},{"id":"03005","name":"PUERTO ALCATRAZ","lon":-111.8437,"lat":24.5054},{"id":"03006","name":"SAN JOSE DEL CABO","lon":-109.6917,"lat":23.0573},{"id":"03007","name":"CABO SAN LUCAS","lon":-109.9085,"lat":22.8806},{"id":"03008","name":"SANTA MARIA","lon":-112.3136,"lat":27.4332},{"id":"03009","name":"SANTA ROSALIA","lon":-112.2634,"lat":27.3391},{"id":"03010","name":"ISLA SAN MARCOS","lon":-112.0858,"lat":27.1907},{"id":"03011","name":"MULEGE","lon":-111.9513,"lat":26.8963},{"id":"03012","name":"BAHIA CONCEPCION","lon":-111.7524,"lat":26.607},{"id":"03013","name":"LORETO","lon":-111.3393,"lat":26.015},{"id":"03014","name":"NOPOLO","lon":-111.3549,"lat":25.9352},{"id":"03015","name":"PUERTO ESCONDIDO","lon":-111.3143,"lat":25.8134},{"id":"03016","name":"SAN JUAN DE LA COSTA","lon":-110.6828,"lat":24.3947},{"id":"03017","name":"PICHILINGUE","lon":-110.3294,"lat":24.2752},{"id":"03018","name":"LA PAZ","lon":-110.3263,"lat":24.1551},{"id":"03019","name":"PUNTA PRIETA","lon":-110.3126,"lat":24.2203},{"id":"03020","name":"LOS  BARRILES","lon":-109.6958,"lat":23.682},{"id":"04001","name":"SEYBAPLAYA","lon":-90.7084,"lat":19.6518},{"id":"04002","name":"CAYO DE ARCAS","lon":-91.9662,"lat":20.1972},{"id":"04003","name":"CAMPECHE","lon":-90.5818,"lat":19.8289},{"id":"04004","name":"CHAMPOTON","lon":-90.7215,"lat":19.358},{"id":"04005","name":"SABANCUY","lon":-91.1854,"lat":18.9951},{"id":"04006","name":"ISLA AGUADA","lon":-91.4917,"lat":18.781},{"id":"04007","name":"PUERTO REAL","lon":-91.5301,"lat":18.7769},{"id":"04008","name":"CIUDAD DE CARMEN","lon":-91.8484,"lat":18.6469},{"id":"04009","name":"ISLA ARENA CALKINI","lon":-90.4526,"lat":20.6887},{"id":"04010","name":"BAHAMITAS","lon":-91.6972,"lat":18.6991},{"id":"04011","name":"ARROYO GRANDE","lon":-91.8237,"lat":18.6319},{"id":"06001","name":"LAS HADAS","lon":-104.3455,"lat":19.0992},{"id":"06002","name":"PUERTO INTERIOR SAN PEDRITO","lon":-104.2955,"lat":19.0647},{"id":"06003","name":"MANZANILLO","lon":-104.3138,"lat":19.0575},{"id":"06004","name":"LAGUNA DE CUYUTLAN","lon":-104.2562,"lat":18.9981},{"id":"07001","name":"PUERTO MADERO","lon":-92.4043,"lat":14.7045},{"id":"07002","name":"SAN JOSE MAZATAN","lon":-92.6242,"lat":14.9212},{"id":"12001","name":"IXTAPA","lon":-101.6207,"lat":17.6631},{"id":"12002","name":"ZIHUATANEJO","lon":-101.5588,"lat":17.6351},{"id":"12003","name":"PUERTO VICENTE GUERRERO","lon":-101.0564,"lat":17.2761},{"id":"12004","name":"ACAPULCO","lon":-99.905,"lat":16.8392},{"id":"12005","name":"PUERTO MARQUEZ","lon":-99.8386,"lat":16.7961},{"id":"14001","name":"PUERTO VALLARTA","lon":-105.2435,"lat":20.6561},{"id":"14002","name":"BARA NAVIDAD","lon":-104.6841,"lat":19.1992},{"id":"16001","name":"LAZARO CARDENAS","lon":-102.1786,"lat":17.9339},{"id":"18001","name":"MEXCALTITLAN","lon":-105.4754,"lat":21.9054},{"id":"18002","name":"PUERTO BALLETO","lon":-106.5362,"lat":21.6346},{"id":"18003","name":"SAN BLAS","lon":-105.2921,"lat":21.5412},{"id":"18004","name":"CHACALA","lon":-105.2279,"lat":21.1653},{"id":"18005","name":"CRUZ DE HUANACAXTLE","lon":-105.3802,"lat":20.7475},{"id":"18006","name":"NUEVO VALLARATA","lon":-105.2918,"lat":20.6913},{"id":"20001","name":"PUERTO ANGEL","lon":-96.4929,"lat":15.6649},{"id":"20002","name":"SALINA CRUZ","lon":-95.1968,"lat":16.1645},{"id":"20003","name":"MARINA STA CRUZ, HUATULCO","lon":-96.129,"lat":15.7527},{"id":"20004","name":"BAHIA CHAHUE, HUATULCO","lon":-96.1206,"lat":15.7592},{"id":"20005","name":"LA PASTORIA","lon":-97.5572,"lat":15.9836},{"id":"20006","name":"PUERTO ESCONDIDO","lon":-97.0637,"lat":15.8596},{"id":"20007","name":"MARINA STA. CRUZ-HUATULCO","lon":-96.131,"lat":15.7541},{"id":"23001","name":"CHIQUILA","lon":-87.3371,"lat":21.4338},{"id":"23002","name":"HOLBOX","lon":-87.386,"lat":21.5211},{"id":"23003","name":"PUNTA SAM","lon":-86.8006,"lat":21.2225},{"id":"23004","name":"PUERTO JUAREZ","lon":-86.8056,"lat":21.1831},{"id":"23005","name":"ISLA MUJERES","lon":-86.7436,"lat":21.2429},{"id":"23006","name":"CANCUN","lon":-86.7616,"lat":21.1384},{"id":"23007","name":"PUERTO MORELOS","lon":-86.8794,"lat":20.8414},{"id":"23008","name":"PLAYA DEL CARMEN","lon":-87.0714,"lat":20.6259},{"id":"23009","name":"BANCO PLAYA","lon":-86.9409,"lat":20.5274},{"id":"23010","name":"COZUMEL","lon":-86.9551,"lat":20.5092},{"id":"23011","name":"PUNTA VENADO (CALICA)","lon":-87.1256,"lat":20.5715},{"id":"23012","name":"PUERTO AVENTURAS","lon":-87.2242,"lat":20.499},{"id":"23013","name":"PUNTA ALLEN","lon":-87.4704,"lat":19.7875},{"id":"23014","name":"MAHAHUAL","lon":-87.709,"lat":18.7115},{"id":"23015","name":"XCALAK","lon":-87.8328,"lat":18.2737},{"id":"23016","name":"LA AGUADA","lon":-87.8416,"lat":18.2284},{"id":"23017","name":"CHETUMAL","lon":-88.3007,"lat":18.4914},{"id":"25001","name":"TOPOLOBAMPO","lon":-109.056,"lat":25.593},{"id":"25002","name":"LA REFORMA","lon":-108.0575,"lat":25.0756},{"id":"25003","name":"ALTATA","lon":-107.9159,"lat":24.6335},{"id":"25004","name":"MAZATLAN","lon":-106.4153,"lat":23.1858},{"id":"25005","name":"TEACAPAN","lon":-105.7427,"lat":22.5394},{"id":"25006","name":"MARINA MAZATLAN","lon":-106.4577,"lat":23.2704},{"id":"25007","name":"MARINA EL CID","lon":-106.4646,"lat":23.269},{"id":"25008","name":"MARINA MAZATLAN","lon":-106.4578,"lat":23.2708},{"id":"26001","name":"GOLFO DE SANTA CLARA","lon":-114.5803,"lat":31.6557},{"id":"26002","name":"PUERTO PENASCO","lon":-113.5447,"lat":31.3054},{"id":"26003","name":"PUERTO LIBERTAD","lon":-112.6934,"lat":29.9018},{"id":"26004","name":"SAN CARLOS","lon":-111.0625,"lat":27.9482},{"id":"26005","name":"MARINA REAL","lon":-111.0927,"lat":27.9465},{"id":"26006","name":"R. SANCHEZ TABOADA","lon":-110.8692,"lat":27.8836},{"id":"26007","name":"GUAYMAS","lon":-110.886,"lat":27.9196},{"id":"26008","name":"YAVAROS","lon":-109.518,"lat":26.7069},{"id":"27001","name":"SANCHEZ MAGALLANES","lon":-93.854,"lat":18.2963},{"id":"27002","name":"DOS BOCAS","lon":-93.1928,"lat":18.4379},{"id":"27003","name":"FRONTERA","lon":-92.6553,"lat":18.5306},{"id":"27004","name":"BARRA DE CHILTEPEC","lon":-93.0912,"lat":18.4416},{"id":"27005","name":"JONUTA","lon":-92.1381,"lat":18.0859},{"id":"27006","name":"BARRA DE SAN PEDRO","lon":-92.4688,"lat":18.6432},{"id":"27007","name":"VILLAHERMOSA","lon":-92.9423,"lat":18.0152},{"id":"27008","name":"TABASQUILLO","lon":-92.6808,"lat":18.374},{"id":"28001","name":"EL MEZQUITAL","lon":-97.4228,"lat":25.2346},{"id":"28002","name":"BOCA CIEGA","lon":-97.5311,"lat":25.0033},{"id":"28003","name":"EL CARBAJAL","lon":-97.7412,"lat":24.5},{"id":"28004","name":"BOCA DE JESUS MARIA","lon":-97.6831,"lat":24.4783},{"id":"28005","name":"LA PESCA","lon":-97.7699,"lat":23.783},{"id":"28006","name":"BARRA DEL TORDO","lon":-97.7627,"lat":23.0566},{"id":"28007","name":"ALTAMIRA","lon":-97.8835,"lat":22.4882},{"id":"28008","name":"TAMPICO","lon":-97.8152,"lat":22.2493},{"id":"30001","name":"COATZACOALCOS","lon":-94.4097,"lat":18.1458},{"id":"30002","name":"TUXPAN","lon":-97.3326,"lat":20.9603},{"id":"30003","name":"VERACRUZ","lon":-96.131,"lat":19.206},{"id":"30004","name":"ALVARADO","lon":-95.766,"lat":18.7673},{"id":"30005","name":"ANTON LIZARDO","lon":-95.9829,"lat":19.0654},{"id":"30006","name":"BALZAPOTE","lon":-95.0681,"lat":18.6224},{"id":"30007","name":"BARRA DE GALINDO","lon":-97.3274,"lat":21.0181},{"id":"30008","name":"BOCA DEL RIO","lon":-96.1014,"lat":19.1011},{"id":"30009","name":"CAZONES","lon":-97.2001,"lat":20.7253},{"id":"30010","name":"ISLA LOBOS","lon":-97.2306,"lat":21.463},{"id":"30011","name":"MINATITLAN","lon":-94.5366,"lat":17.9757},{"id":"30012","name":"NANCHITAL","lon":-94.4145,"lat":18.0762},{"id":"30013","name":"NAUTLA","lon":-96.7846,"lat":20.2384},{"id":"30014","name":"PAJARITOS","lon":-94.3998,"lat":18.1281},{"id":"30015","name":"TAMIAHUA-BARRA DE CORAZONES","lon":-97.4374,"lat":21.2603},{"id":"30016","name":"TECOLUTLA","lon":-97.0162,"lat":20.4743},{"id":"30017","name":"TLACOTALPAN","lon":-95.6576,"lat":18.6101},{"id":"30018","name":"BOCA DEL RIO","lon":-96.1037,"lat":19.0992},{"id":"30019","name":"EL CONCHAL BOCA DEL RIO","lon":-96.1029,"lat":19.0972},{"id":"30020","name":"VILLA RICA BOCA DEL RIO","lon":-96.1122,"lat":19.0848},{"id":"31001","name":"CELESTUN","lon":-90.407,"lat":20.848},{"id":"31002","name":"SISAL","lon":-90.0492,"lat":21.163},{"id":"31003","name":"CHUBURNA","lon":-89.8448,"lat":21.2482},{"id":"31004","name":"YUKALPETEN","lon":-89.7024,"lat":21.2749},{"id":"31005","name":"PROGRESO","lon":-89.6767,"lat":21.3371},{"id":"31006","name":"TELCHAC","lon":-89.309,"lat":21.3395},{"id":"31007","name":"CHABIHAU","lon":-89.1442,"lat":21.3551},{"id":"31008","name":"DZILAM DE BRAVO","lon":-88.8801,"lat":21.3963},{"id":"31009","name":"SAN FELIPE","lon":-88.2312,"lat":21.5684},{"id":"31010","name":"RIO LAGARTOS","lon":-88.1607,"lat":21.5995},{"id":"31011","name":"EL CUYO","lon":-87.6866,"lat":21.5185},{"id":"31012","name":"LAS COLORADAS","lon":-87.9985,"lat":21.612}]
